stop_id,stop_name,stop_desc,stop_lat,stop_lon,zone_id,location_type,parent_station
E000D055,ROVIGO DEPOSITO,"",45.075950,11.782250,E000D055,0,
E0012001,STAZIONE FS MARC.1,"",45.076700,11.782080,E0012001,0,
E0012003,ROVIGOPREMIA,"",45.073080,11.783690,E0012003,0,
E0012004,UPIM,"",45.070970,11.787540,E0012004,0,
E0012005,B.N.L.,"",45.069960,11.789920,E0012005,0,
E0012006,P.TE RODA,"",45.068870,11.791790,E0012006,0,
E0012007,CATASTO,"",45.067220,11.793050,E0012007,0,
E0012008,PORTA PO,"",45.064500,11.793840,E0012008,0,
E0012009,P.ZZA S.BARTOLOMEO,"",45.064870,11.796200,E0012009,0,
E0012010,POLIZIA MUNICIPALE,"",45.067010,11.798980,E0012010,0,
E0012011,CIMITERO V.le Oroboni,"",45.070040,11.800920,E0012011,0,
E0012012,RESIDENCE PAOLA,"",45.072510,11.799550,E0012012,0,
E0012013,BAR MARCELLA,"",45.074600,11.800290,E0012013,0,
E0012014,CIRCOLO TENNIS,"",45.075400,11.802560,E0012014,0,
E0012015,STADIO CALCIO,"",45.075740,11.805040,E0012015,0,
E0012017,OSPEDALE CIVILE,"",45.074330,11.815200,E0012017,0,
E0012018,OSPEDALE CIVILE,"",45.074160,11.815590,E0012018,0,
E0012019,C.I.S.L.,"",45.076550,11.806090,E0012019,0,
E0012020,"VIA G. PIVA, 41","",45.077680,11.805560,E0012020,0,
E0012021,"VIA G.PIVA, 27","",45.077110,11.802910,E0012021,0,
E0012022,"VIA G. PIVA, 26","",45.076230,11.799920,E0012022,0,
E0012023,VENETO BANCA via della Costituzione,"",45.076700,11.797980,E0012023,0,
E0012024,SCUOLA MEDIA N° 3,"",45.078410,11.797940,E0012024,0,
E0012026,"I.T.I.S.""F. VIOLA""","",45.080860,11.796790,E0012026,0,
E0012027,I.P.C.,"",45.080800,11.794130,E0012027,0,
E0012028,PIAZZA EUROPA,"",45.079400,11.792060,E0012028,0,
E0012029,EDICOLA,"",45.079320,11.790570,E0012029,0,
E0012030,CASA SERENA  Via Bramante,"",45.081550,11.788240,E0012030,0,
E0012032,"VIA T. TASSO, 11","",45.080450,11.787240,E0012032,0,
E0012033,VIA T. TASSO EX - PISCINA,"",45.079060,11.787340,E0012033,0,
E0012034,GIARDINETTI,"",45.077290,11.787500,E0012034,0,
E0012035,I.N.P.S.,"",45.076410,11.786060,E0012035,0,
E0012036,DON BOSCO,"",45.076170,11.784320,E0012036,0,
E0012037,STAZIONE FS MARC.4,"",45.076710,11.781830,E0012037,0,
E0012039,ACQUEDOTTO ROVIGO,"",45.076760,11.791140,E0012039,0,
E0012040,BIVIO VIA BONIFACIO,"",45.076970,11.795240,E0012040,0,
E0012042,CORTE CASALINI,"",45.074780,11.819230,E0012042,0,
E0012043,"VIA I.NIEVO, 34","",45.073210,11.824130,E0012043,0,
E0012044,"VIA I.NIEVO, 24","",45.068470,11.828790,E0012044,0,
E0012045,BUSO CIMITERO,"",45.065580,11.829320,E0012045,0,
E0012046,"VIA I.NIEVO, 6","",45.061770,11.832430,E0012046,0,
E0012047,BUSO CENTRO,"",45.061960,11.835410,E0012047,0,
E0012048,"VIA G.CARDUCCI, 139","",45.063790,11.846880,E0012048,0,
E0012049,"VIA G.CARDUCCI, 113","",45.065520,11.854530,E0012049,0,
E0012050,"VIA G.CARDUCCI, 89","",45.064510,11.859900,E0012050,0,
E0012051,CANALE CHIESA,"",45.063400,11.864170,E0012051,0,
E0012057,BANCA ANTONVENETA V.le della Pace,"",45.074680,11.786660,E0012057,0,
E0012058,BIVIO V.LE A.GRAMSCI,"",45.074500,11.792010,E0012058,0,
E0012059,CENTRO MEDICO,"",45.074110,11.794830,E0012059,0,
E0012060,COOP,"",45.073880,11.797720,E0012060,0,
E0012061,VIGNAZZA,"",45.077570,11.824850,E0012061,0,
E0012062,SARZANO EDICOLA,"",45.079760,11.826750,E0012062,0,
E0012063,SARZANO SCUOLE,"",45.081470,11.827740,E0012063,0,
E0012064,SARZANO CHIESA,"",45.084060,11.829530,E0012064,0,
E0012065,"VIALE DEI MILLE, 156","",45.088850,11.831410,E0012065,0,
E0012066,PONTE CERESOLO,"",45.093800,11.831540,E0012066,0,
E0012067,"V.LE DEI MILLE, 184","",45.097270,11.831550,E0012067,0,
E0012068,BIVIO VIA VOLTURNO,"",45.100400,11.832260,E0012068,0,
E0012069,BIVIO VIA TEANO,"",45.102950,11.834310,E0012069,0,
E0012070,"VIA DEI MILLE, 260","",45.105730,11.835560,E0012070,0,
E0012071,BIVIO VIA ASPROMONTE,"",45.107530,11.836090,E0012071,0,
E0012072,"VIA DEI MILLE, 320","",45.110530,11.839360,E0012072,0,
E0012073,BIVIO VIA MENTANA,"",45.111610,11.841510,E0012073,0,
E0012074,MARDIMAGO CENTRO,"",45.111570,11.846590,E0012074,0,
E0012075,CA' BIANCA CAPOLINEA,"",45.119590,11.827860,E0012075,0,
E0012076,BIVIO COLTRA,"",45.114610,11.822130,E0012076,0,
E0012077,BIVIO CUORE,"",45.112830,11.813730,E0012077,0,
E0012078,CA' MATTE Via Curtatone,"",45.110790,11.803370,E0012078,0,
E0012079,BOARA P.ACQUEDOTTO,"",45.109900,11.797760,E0012079,0,
E0012080,BIVIO MELEGNANO,"",45.107160,11.795710,E0012080,0,
E0012081,BOARA POL. SCUOLE,"",45.105940,11.791520,E0012081,0,
E0012082,BOARA POLESINE CIMITERO,"",45.104860,11.788560,E0012082,0,
E0012087,PIZZ.DELIZIOSA,"",45.101150,11.785630,E0012087,0,
E0012088,BOARA POL.METANO,"",45.098090,11.785580,E0012088,0,
E0012089,CENTRAUTO,"",45.093860,11.785530,E0012089,0,
E0012090,ALIPER,"",45.088640,11.785460,E0012090,0,
E0012091,CEN.SER.,"",45.085900,11.785300,E0012091,0,
E0012092,PITTARELLO,"",45.080930,11.785380,E0012092,0,
E0012093,VIA PORTA ADIGE EX - PISCINA,"",45.079190,11.785320,E0012093,0,
E0012094,SOTTOPASSAGGIO,"",45.073310,11.780040,E0012094,0,
E0012095,SAN PIO X CHIESA,"",45.074170,11.778080,E0012095,0,
E0012097,"VIA CHIARUGI, 23","",45.075880,11.780050,E0012097,0,
E0012098,"VIA CHIARUGI, 48","",45.078490,11.780010,E0012098,0,
E0012099,"VIA CHIARUGI, 63","",45.082980,11.776730,E0012099,0,
E0012100,"VIA CHIARUGI, 105","",45.084500,11.776080,E0012100,0,
E0012101,EX OSP.PSICHIATRICO,"",45.087700,11.776010,E0012101,0,
E0012102,GRANZETTE CIMITERO,"",45.090350,11.775150,E0012102,0,
E0012105,BIVIO GRANZETTE,"",45.091770,11.772570,E0012105,0,
E0012106,GRANZETTE POLLICOLT.,"",45.091300,11.768790,E0012106,0,
E0012107,VIA O.MUNERATI 56,"",45.091390,11.765400,E0012107,0,
E0012108,V.O.MUNERATI SCUOLE,"",45.090000,11.761790,E0012108,0,
E0012109,CAPITELLO S.ANTONIO,"",45.090180,11.756590,E0012109,0,
E0012110,PIZZ. DUE PALME,"",45.091090,11.754540,E0012110,0,
E0012111,CABINA ENEL  Via Bassa 59,"",45.093460,11.752140,E0012111,0,
E0012112,PONTE AUTOSTRADA,"",45.095460,11.748780,E0012112,0,
E0012113,VIA BASSA 41,"",45.095410,11.740790,E0012113,0,
E0012114,"VIA BASSA, 27","",45.095540,11.736080,E0012114,0,
E0012115,"CONCADIRAME ""PESA""","",45.094680,11.730370,E0012115,0,
E0012116,CONCADIRAME CENTRO,"",45.095190,11.728560,E0012116,0,
E0012117,CONCADIRAME CAPITELL,"",45.094060,11.725290,E0012117,0,
E0012118,VIA BALBI VALIER,"",45.091290,11.721390,E0012118,0,
E0012119,"VIA CERESOLO, 29","",45.090910,11.716230,E0012119,0,
E0012120,"VIA CERESOLO, 17","",45.090530,11.711690,E0012120,0,
E0012121,"VIA CERESOLO, 60","",45.089740,11.705710,E0012121,0,
E0012122,GROMPO CAPOLINEA,"",45.088640,11.703170,E0012122,0,
E0012138,VIA L.RIZZI,"",45.073620,11.774430,E0012138,0,
E0012140,"VIA W.A.MOZART, 5","",45.071290,11.774810,E0012140,0,
E0012141,VIA SPONTINI,"",45.069780,11.774450,E0012141,0,
E0012142,VIA W.FERRARI,"",45.068100,11.774320,E0012142,0,
E0012148,P.LE APPIOTTI ESTERNO,"",45.063590,11.794490,E0012148,0,
E0012149,PONTE FONDERIA,"",45.062360,11.796370,E0012149,0,
E0012150,VIALE VENEZIA 3/A,"",45.061960,11.798650,E0012150,0,
E0012151,BIVIO VIA ESTE,"",45.062440,11.801740,E0012151,0,
E0012152,"VIA ANNA FRANK, 26","",45.063980,11.803440,E0012152,0,
E0012153,"V.D.RESISTENZA, 18","",45.065260,11.802450,E0012153,0,
E0012155,IRAS,"",45.065090,11.798400,E0012155,0,
E0012156,SCUOLA MEDIA N° 4,"",45.065150,11.799090,E0012156,0,
E0012157,PASSAGGIO A LIVELLO,"",45.063370,11.783870,E0012157,0,
E0012158,SCUOLE ELEMENTARI,"",45.061020,11.783260,E0012158,0,
E0012159,"VIA V.VENETO, 114","",45.059160,11.782180,E0012159,0,
E0012160,"VIALE DEL LAVORO, 23","",45.055860,11.780050,E0012160,0,
E0012161,"VIALE DEL LAVORO, 15","",45.053820,11.782030,E0012161,0,
E0012162,AGRITALIA TRATTORI,"",45.052460,11.784790,E0012162,0,
E0012163,INAIL,"",45.051260,11.789290,E0012163,0,
E0012164,MECO,"",45.049870,11.790860,E0012164,0,
E0012165,FONDERIA INFUNFOR,"",45.047500,11.793490,E0012165,0,
E0012166,VLE DELL'ARTIGIAN.48,"",45.044570,11.795830,E0012166,0,
E0012167,VLE DELL'ARTIGIAN.17,"",45.041950,11.790750,E0012167,0,
E0012170,BANCA ANTONVENETA Via Savonarola,"",45.040430,11.790720,E0012170,0,
E0012171,BORSEA CHIESA,"",45.038810,11.793160,E0012171,0,
E0012172,"VIA SAVONAROLA, 155","",45.036580,11.796050,E0012172,0,
E0012173,"VIA SAVONAROLA, 180","",45.032810,11.801550,E0012173,0,
E0012174,PASSO PONTECCHIO,"",45.031050,11.805770,E0012174,0,
E0012175,"VIA M.BELFIORE, 19","",45.060040,11.797800,E0012175,0,
E0012176,"VIA M.BELFIORE, 72","",45.056550,11.798550,E0012176,0,
E0012177,BIVIO TAZZOLI,"",45.052120,11.794080,E0012177,0,
E0012178,"VIA M.BELFIORE, 53","",45.048240,11.797200,E0012178,0,
E0012179,SAN SISTO,"",45.046640,11.803500,E0012179,0,
E0012180,SAN SISTO P.L.,"",45.045050,11.806330,E0012180,0,
E0012181,CASE POPOLARI Via Don Aser Porta,"",45.040600,11.817240,E0012181,0,
E0012182,GRIGNANO CENTRO,"",45.042060,11.750570,E0012182,0,
E0012183,S.APOLLINARE CENTRO,"",45.040230,11.821310,E0012183,0,
E0012186,"VIA BERGAMO, 41","",45.038670,11.823970,E0012186,0,
E0012187,VIA PONTE CANOZIO,"",45.036950,11.827630,E0012187,0,
E0012188,ITAS INTERNO,"",45.035050,11.825210,E0012188,0,
E0012189,RAIMONDI SALOTTI,"",45.037120,11.835660,E0012189,0,
E0012190,"VIA F.BARACCA, 16","",45.037830,11.840540,E0012190,0,
E0012191,"VIA F.BARACCA, 36","",45.037360,11.846140,E0012191,0,
E0012192,"VIA F.BARACCA, 50","",45.036530,11.850350,E0012192,0,
E0012193,FENIL DEL TURCO C.,"",45.035600,11.856160,E0012193,0,
E0012194,"VIA F.BARACCA, 47","",45.036270,11.860340,E0012194,0,
E0012195,"VIA S.CASSIANO, 14","",45.031790,11.868120,E0012195,0,
E0012196,P.TE DEI TACCHETTI,"",45.023990,11.868800,E0012196,0,
E0012197,SAN CASSIANO,"",45.022240,11.869680,E0012197,0,
E0012198,PONTE MERLO,"",45.044670,11.742480,E0012198,0,
E0012199,PESA,"",45.044770,11.744390,E0012199,0,
E0012200,SCUOLE ELEMENTARI Via PonteMerlo,"",45.043210,11.747240,E0012200,0,
E0012204,BIVIO GRIGNANO,"",45.042420,11.753130,E0012204,0,
E0012205,FORNACE,"",45.044730,11.757560,E0012205,0,
E0012206,"VIA GIOTTO, 45","",45.044050,11.761790,E0012206,0,
E0012207,CAVALCAFERROVIA,"",45.043430,11.770830,E0012207,0,
E0012208,"V.GIOTTO, 28","",45.045460,11.775150,E0012208,0,
E0012209,"V.GIOTTO, 67","",45.047160,11.780440,E0012209,0,
E0012210,SPIANATA (VIA GIOTTO),"",45.045890,11.784130,E0012210,0,
E0012211,AREA TOSI,"",45.047880,11.785920,E0012211,0,
E0012212,HOTEL EUROPA,"",45.052190,11.788170,E0012212,0,
E0012213,DISCOUNT LIDL,"",45.058010,11.791180,E0012213,0,
E0012214,BAR RAMADA,"",45.061100,11.792730,E0012214,0,
E0012217,SC.MEDIA RICCOBONI,"",45.071850,11.774380,E0012217,0,
E0012218,C.U.R. P.LE INTERNO,"",45.086300,11.783950,E0012218,0,
E0012219,V.CURTATONE CIV.200,"",45.110360,11.800630,E0012219,0,
E0012220,OSPEDALE ENTRATA SUD,"",45.071740,11.818730,E0012220,0,
E0012221,P.LE APPIOTTI INTERNO,"",45.063680,11.794690,E0012221,0,
E0012222,V. COSTITUZIONE - PARCO CIBOTTO,"",45.082090,11.799800,E0012222,0,
E0012223,V. B.CROCE,"",45.080140,11.801880,E0012223,0,
E0012224,C.C. LE TORRI,"",45.068050,11.787130,E0012224,0,
E0012225,OVS,"",45.071900,11.785590,E0012225,0,
E0012232,*OSPEDALE CIVILE /R*,"",45.074080,11.815560,E0012232,0,
E0012287,INC.V.MONTEROTONDO/R,"",45.100880,11.783820,E0012287,0,
E0012304,VIA CAVALLETTO,"",45.088370,11.777970,E0012304,0,
E0012305,V. ZUCCHERIFICIO 27,"",45.089500,11.783870,E0012305,0,
E0012391,FERMATA I.T.A.S. 1,"",45.036060,11.828210,E0012391,0,
E0012392,"V.MART.BELFIORE, 124","",45.041830,11.814340,E0012392,0,
E0012393,"VIA CURTATONE, 118","",45.106080,11.794260,E0012393,0,
E0012394,VIA GOITO,"",45.116760,11.828170,E0012394,0,
E0012402,CASA DI CURA CITTA' DI ROVIGO,"",45.064950,11.786730,E0012402,0,
E0012403,CONCADIRAME CAMPO SPORTIVO,"",45.091870,11.721870,E0012403,0,
E0012405,NUOVO CARCERE,"",45.086310,11.811560,E0012405,0,
E0012406,VIALE PORTA PO - SPIANATA,"",45.045420,11.784470,E0012406,0,
E012002R,PONTE MARABIN R,"",45.074380,11.782080,E0012002,0,
E012003R,ROVIGOPREMIA R,"",45.073160,11.783550,E0012003,0,
E012005R,B.N.L. R,"",45.069470,11.790780,E0012005,0,
E012006R,P.TE RODA R,"",45.068560,11.792150,E0012006,0,
E012007R,CATASTO R,"",45.066720,11.793260,E0012007,0,
E012008R,PORTA PO R,"",45.064640,11.793470,E0012008,0,
E012009R,P.ZZA S.BARTOLOMEO R,"",45.064790,11.796070,E0012009,0,
E012010R,POLIZIA MUNICIPALE R,"",45.066910,11.798980,E0012010,0,
E012011R,CIMITERO V.le Oroboni R,"",45.069990,11.801080,E0012011,0,
E012012R,RESIDENCE PAOLA R,"",45.072930,11.799430,E0012012,0,
E012013R,BAR MARCELLA R,"",45.074630,11.800310,E0012013,0,
E012014R,QUESTURA R,"",45.075420,11.802770,E0012014,0,
E012015R,STADIO CALCIO R,"",45.075760,11.805070,E0012015,0,
E012016R,CITTADELLA SANITARIA R,"",45.075310,11.810750,E0012016,0,
E012017R,OSPEDALE CIVILE R,"",45.074500,11.814270,E0012017,0,
E012019R,C.I.S.L. R,"",45.076400,11.806120,E0012019,0,
E012020R,"VIA G. PIVA, 41 R","",45.077750,11.805590,E0012020,0,
E012021R,"VIA G.PIVA, 27 R","",45.077290,11.803170,E0012021,0,
E012022R,"VIA G. PIVA, 26 R","",45.076370,11.800080,E0012022,0,
E012023R,VENETO BANCA via della Costituzione R,"",45.076840,11.798030,E0012023,0,
E012025R,"V.DELLA COSTITUZ.,18 R","",45.080270,11.797830,E0012025,0,
E012026R,"I.T.I.S.""F. VIOLA"" R","",45.080850,11.796900,E0012026,0,
E012027R,I.P.C. R,"",45.080870,11.793860,E0012027,0,
E012029R,EDICOLA R,"",45.079380,11.790830,E0012029,0,
E012030R,CASA SERENA Via Bramante R,"",45.081680,11.788400,E0012030,0,
E012032R,"VIA T. TASSO, 11 R","",45.080540,11.787130,E0012032,0,
E012033R,VIA T. TASSO EX - PISCINA R,"",45.079160,11.787280,E0012033,0,
E012034R,GIARDINETTI R,"",45.077650,11.787430,E0012034,0,
E012035R,I.N.P.S. R,"",45.076530,11.786040,E0012035,0,
E012036R,HOTEL CRISTALLO R,"",45.076070,11.784670,E0012036,0,
E012039R,ACQUEDOTTO ROVIGO R,"",45.076770,11.790790,E0012039,0,
E012040R,BIVIO VIA BONIFACIO R,"",45.077010,11.795270,E0012040,0,
E012042R,CORTE CASALINI R,"",45.074700,11.818490,E0012042,0,
E012043R,"VIA I.NIEVO, 34 R","",45.073210,11.824150,E0012043,0,
E012044R,"VIA I.NIEVO, 24 R","",45.068330,11.828800,E0012044,0,
E012045R,BUSO CIMITERO R,"",45.065800,11.829290,E0012045,0,
E012046R,"VIA I.NIEVO, 6 R","",45.061740,11.832510,E0012046,0,
E012047R,BUSO CENTRO R,"",45.062030,11.835440,E0012047,0,
E012052R,CANALE CENTRO R,"",45.064500,11.864460,E0012052,0,
E012053R,"VIA PASSETTO, 162 R","",45.065660,11.858880,E0012053,0,
E012054R,"VIA PASSETTO, 140 R","",45.066490,11.854000,E0012054,0,
E012055R,"VIA PASSETTO, 102/A R","",45.064990,11.848190,E0012055,0,
E012056R,"VIA PASSETTO,70 R","",45.063610,11.842170,E0012056,0,
E012057R,BANCA ANTONVENETA V.le della Pace R,"",45.074750,11.786720,E0012057,0,
E012058R,BIVIO V.LE A.GRAMSCI R,"",45.074540,11.791950,E0012058,0,
E012059R,CENTRO MEDICO R,"",45.074140,11.795010,E0012059,0,
E012060R,COOP R,"",45.073890,11.798040,E0012060,0,
E012061R,VIGNAZZA R,"",45.077580,11.824790,E0012061,0,
E012062R,SARZANO EDICOLA R,"",45.080150,11.826890,E0012062,0,
E012063R,SARZANO SCUOLE R,"",45.081200,11.827510,E0012063,0,
E012064R,SARZANO CHIESA R,"",45.084160,11.829560,E0012064,0,
E012065R,"VIALE DEI MILLE, 156 R","",45.089220,11.831450,E0012065,0,
E012066R,PONTE CERESOLO R,"",45.093950,11.831430,E0012066,0,
E012067R,"V.LE DEI MILLE, 184 R","",45.096910,11.831450,E0012067,0,
E012068R,BIVIO VIA VOLTURNO R,"",45.099990,11.832040,E0012068,0,
E012069R,BIVIO VIA TEANO R,"",45.103130,11.834280,E0012069,0,
E012070R,"VIA DEI MILLE, 260 R","",45.105720,11.835450,E0012070,0,
E012071R,BIVIO VIA ASPROMONTE R,"",45.107850,11.836140,E0012071,0,
E012072R,"VIA DEI MILLE, 320 R","",45.110500,11.839200,E0012072,0,
E012073R,BIVIO VIA MENTANA R,"",45.111690,11.841480,E0012073,0,
E012074R,MARDIMAGO CENTRO R,"",45.111570,11.846630,E0012074,0,
E012075R,CA' BIANCA CAPOLINEA R,"",45.119690,11.827820,E0012075,0,
E012076R,BIVIO COLTRA R,"",45.114630,11.822110,E0012076,0,
E012077R,BIVIO CUORE R,"",45.112770,11.813430,E0012077,0,
E012078R,CA' MATTE Via Curtatone R,"",45.110770,11.803180,E0012078,0,
E012079R,BOARA P.ACQUEDOTTO R,"",45.109970,11.797890,E0012079,0,
E012080R,BIVIO MELEGNANO R,"",45.106780,11.795560,E0012080,0,
E012081R,BOARA POL. SCUOLE R,"",45.105840,11.791100,E0012081,0,
E012082R,BOARA POLESINE CIMITERO R,"",45.105080,11.789460,E0012082,0,
E012085R,RADECCHIO R,"",45.098570,11.780280,E0012085,0,
E012087R,PIZZ.DELIZIOSA R,"",45.101000,11.785530,E0012087,0,
E012088R,BOARA POL.METANO R,"",45.099110,11.785510,E0012088,0,
E012089R,CENTRAUTO R,"",45.093990,11.785430,E0012089,0,
E012090R,ALIPER R,"",45.088490,11.785380,E0012090,0,
E012091R,CEN.SER. R,"",45.086100,11.785400,E0012091,0,
E012092R,PITTARELLO R,"",45.080530,11.785260,E0012092,0,
E012093R,VIA PORTA ADIGE EX - PISCINA R,"",45.079330,11.785250,E0012093,0,
E012097R,"VIA CHIARUGI, 23 R","",45.076070,11.779940,E0012097,0,
E012098R,"VIA CHIARUGI, 48 R","",45.078950,11.780000,E0012098,0,
E012099R,"VIA CHIARUGI, 63 R","",45.082730,11.776810,E0012099,0,
E012100R,"VIA CHIARUGI, 105 R","",45.085570,11.775990,E0012100,0,
E012101R,EX OSP.PSICHIATRICO R,"",45.087620,11.775970,E0012101,0,
E012102R,GRANZETTE CIMITERO R,"",45.090360,11.775120,E0012102,0,
E012103R,"VIA ADIGE, 11 R","",45.092680,11.772940,E0012103,0,
E012104R,GRANZETTE CHIESA R,"",45.094950,11.773120,E0012104,0,
E012105R,BIVIO GRANZETTE R,"",45.091820,11.772480,E0012105,0,
E012106R,GRANZETTE POLLICOLT. R,"",45.091380,11.769240,E0012106,0,
E012107R,VIA O.MUNERATI 56 R,"",45.091360,11.765500,E0012107,0,
E012108R,V.O.MUNERATI SCUOLE R,"",45.090030,11.762110,E0012108,0,
E012109R,CAPITELLO S.ANTONIO R,"",45.089910,11.757090,E0012109,0,
E012110R,PIZZ. DUE PALME R,"",45.091070,11.754300,E0012110,0,
E012111R,CABINA ENEL  Via Bassa 59 R,"",45.093470,11.752210,E0012111,0,
E012112R,PONTE AUTOSTRADA R,"",45.095390,11.748580,E0012112,0,
E012113R,VIA BASSA 41 R,"",45.095380,11.740870,E0012113,0,
E012114R,"VIA BASSA, 27 R","",45.095510,11.736630,E0012114,0,
E012115R,"CONCADIRAME ""PESA"" R","",45.094650,11.730170,E0012115,0,
E012116R,CONCADIRAME CENTRO R,"",45.095150,11.728820,E0012116,0,
E012117R,CONCADIRAME CAPITELL R,"",45.094080,11.725340,E0012117,0,
E012118R,VIA BALBI VALIER R,"",45.091300,11.721460,E0012118,0,
E012119R,"VIA CERESOLO, 29 R","",45.090880,11.716090,E0012119,0,
E012120R,"VIA CERESOLO, 17 R","",45.090470,11.711660,E0012120,0,
E012121R,"VIA CERESOLO, 60 R","",45.089700,11.705730,E0012121,0,
E012122R,GROMPO CAPOLINEA R,"",45.088540,11.703230,E0012122,0,
E012143R,VIA D.SCARLATTI R,"",45.068110,11.771200,E0012143,0,
E012144R,"VIA P.MASCAGNI, 93 R","",45.069350,11.770990,E0012144,0,
E012145R,"VIA P.MASCAGNI, 73 R","",45.070150,11.773200,E0012145,0,
E012146R,"VIA P.MASCAGNI, 37 R","",45.071870,11.777390,E0012146,0,
E012147R,"VIA P.MASCAGNI, 5 R","",45.072580,11.779280,E0012147,0,
E012148R,P.LE APPIOTTI ESTERNO R,"",45.063350,11.794580,E0012148,0,
E012149R,PONTE FONDERIA R,"",45.062660,11.795710,E0012149,0,
E012150R,VIALE VENEZIA 3/A R,"",45.061950,11.798740,E0012150,0,
E012151R,BIVIO VIA ESTE R,"",45.062450,11.801820,E0012151,0,
E012152R,"VIA ANNA FRANK, 26 R","",45.063960,11.803470,E0012152,0,
E012153R,"V.D.RESISTENZA, 18 R","",45.065270,11.802750,E0012153,0,
E012154R,VIA T.GALIMBERTI R,"",45.065540,11.800230,E0012154,0,
E012157R,PASSAGGIO A LIVELLO R,"",45.063120,11.783770,E0012157,0,
E012158R,SCUOLE ELEMENTARI R,"",45.060640,11.783140,E0012158,0,
E012159R,"VIA V.VENETO, 114 R","",45.058940,11.782040,E0012159,0,
E012160R,"VIALE DEL LAVORO, 23 R","",45.055760,11.779960,E0012160,0,
E012161R,"VIALE DEL LAVORO, 15 R","",45.053940,11.781670,E0012161,0,
E012162R,AGRITALIA TRATTORI R,"",45.052410,11.784460,E0012162,0,
E012163R,INAIL R,"",45.051310,11.788930,E0012163,0,
E012164R,MECO R,"",45.050070,11.790550,E0012164,0,
E012165R,FONDERIA INFUNFOR R,"",45.047030,11.793850,E0012165,0,
E012166R,VLE DELL'ARTIGIAN.48 R,"",45.044580,11.795790,E0012166,0,
E012167R,VLE DELL'ARTIGIAN.17 R,"",45.042050,11.790870,E0012167,0,
E012170R,BANCA ANTONVENETA Via Savonarola R,"",45.040100,11.790900,E0012170,0,
E012171R,BORSEA CHIESA R,"",45.038840,11.792990,E0012171,0,
E012172R,"VIA SAVONAROLA, 155 R","",45.036710,11.796100,E0012172,0,
E012173R,"VIA SAVONAROLA, 180 R","",45.032770,11.801470,E0012173,0,
E012174R,PASSO PONTECCHIO BAR R,"",45.030000,11.807530,E0012174,0,
E012175R,"VIA M.BELFIORE, 19 R","",45.059760,11.797900,E0012175,0,
E012176R,"VIA M.BELFIORE, 72 R","",45.056530,11.798480,E0012176,0,
E012177R,BIVIO TAZZOLI R,"",45.051900,11.793980,E0012177,0,
E012178R,"VIA M.BELFIORE, 53 R","",45.048200,11.797260,E0012178,0,
E012179R,SAN SISTO R,"",45.046550,11.803790,E0012179,0,
E012180R,SAN SISTO P.L. R,"",45.044930,11.806520,E0012180,0,
E012181R,CASE POPOLARI Via Don Aser Porta R,"",45.040620,11.817290,E0012181,0,
E012183R,S.APOLLINARE CENTRO R,"",45.039660,11.821450,E0012183,0,
E012184R,CIMITERO Via Don Aser Porta R,"",45.041830,11.825470,E0012184,0,
E012185R,ROMAGNANO S.APOLL. R,"",45.043330,11.830230,E0012185,0,
E012186R,"VIA BERGAMO, 41 R","",45.038540,11.824270,E0012186,0,
E012187R,VIA PONTE CANOZIO R,"",45.037110,11.827660,E0012187,0,
E012189R,RAIMONDI SALOTTI R,"",45.037090,11.835540,E0012189,0,
E012190R,"VIA F.BARACCA, 16 R","",45.037820,11.840440,E0012190,0,
E012191R,"VIA F.BARACCA, 36 R","",45.037450,11.845830,E0012191,0,
E012192R,"VIA F.BARACCA, 50 R","",45.036530,11.850340,E0012192,0,
E012193R,FENIL DEL TURCO C. R,"",45.035500,11.856320,E0012193,0,
E012194R,"VIA F.BARACCA, 47 R","",45.036300,11.860290,E0012194,0,
E012195R,"VIA S.CASSIANO, 14 R","",45.031830,11.868130,E0012195,0,
E012196R,P.TE DEI TACCHETTI R,"",45.024160,11.868750,E0012196,0,
E012197R,SAN CASSIANO R,"",45.022210,11.869700,E0012197,0,
E012201R,GRIGNANO POLESINE C. R,"",45.042180,11.750460,E0012201,0,
E012202R,ASILO R,"",45.043850,11.749500,E0012202,0,
E012203R,SCOLO VALDENTRO R,"",45.046060,11.743940,E0012203,0,
E012204R,BIVIO GRIGNANO R,"",45.042470,11.753030,E0012204,0,
E012205R,FORNACE R,"",45.044760,11.757410,E0012205,0,
E012206R,"VIA GIOTTO, 45 R","",45.043980,11.761900,E0012206,0,
E012207R,CAVALCAFERROVIA R,"",45.043500,11.770900,E0012207,0,
E012208R,"V.GIOTTO, 28 R","",45.045700,11.775330,E0012208,0,
E012209R,"V.GIOTTO, 67 R","",45.047230,11.780340,E0012209,0,
E012210R,SPIANATA R (VIA GIOTTO),"",45.045810,11.784280,E0012210,0,
E012211R,AREA TOSI R,"",45.048420,11.786190,E0012211,0,
E012212R,HOTEL EUROPA R,"",45.052300,11.788160,E0012212,0,
E012213R,DISCOUNT LIDL R,"",45.057670,11.790860,E0012213,0,
E012214R,BAR RAMADA R,"",45.061070,11.792680,E0012214,0,
E012215R,PONTE DELL'ASINO R,"",45.047420,11.747750,E0012215,0,
E012217R,SC.MEDIA RICCOBONI R,"",45.071860,11.774420,E0012217,0,
E012218R,C.U.R. P.LE INTERNO R,"",45.086230,11.784040,E0012218,0,
E012219R,V.CURTATONE CIV.200 R,"",45.110400,11.801320,E0012219,0,
E012221R,P.LE APPIOTTI INTERNO R,"",45.063710,11.794680,E0012221,0,
E012222R,V. COSTITUZIONE - PARCO CIBOTTO R,"",45.082150,11.800120,E0012222,0,
E012223R,V. B.CROCE R,"",45.079810,11.801900,E0012223,0,
E012225R,CAFE' LATINO R,"",45.071890,11.785550,E0012225,0,
E012230R,*GOMMISTA DAVI'* R,"",45.075230,11.810460,E0012230,0,
E012231R,S.APOLLINARE EDICOLA R,"",45.040360,11.821340,E0012231,0,
E012287R,INC.V.MONTEROTONDO/R R,"",45.101050,11.783920,E0012287,0,
E012303R,VIA ADIGE /R R,"",45.092700,11.772950,E0012303,0,
E012304R,VIA CAVALLETTO R,"",45.088470,11.777850,E0012304,0,
E012305R,V. ZUCCHERIFICIO 27 R,"",45.089410,11.783640,E0012305,0,
E012391R,FERMATA I.T.A.S. 1 R,"",45.036050,11.828260,E0012391,0,
E012392R,"V.MART.BELFIORE, 124 R","",45.041980,11.813340,E0012392,0,
E012393R,"VIA CURTATONE, 118 R","",45.106110,11.793940,E0012393,0,
E012394R,VIA GOITO R,"",45.116700,11.828150,E0012394,0,
E012395R,V.CONCILIAZIONE R,"",45.042450,11.821050,E0012395,0,
E012396R,V.PONTE ASINO 30/E R,"",45.045250,11.748500,E0012396,0,
E012397R,VIALE UNITA' EUROPEA R,"",45.033950,11.777340,E0012397,0,
E012398R,CENTRO COMMERCIALE NORD C&A R,"",45.033010,11.780400,E0012398,0,
E012399R,V.DEL COMMERCIO CENTRO COMMERCIALE SUD R,"",45.029750,11.779940,E0012399,0,
E012400R,LICEO SCIENTIFICO R,"",45.080920,11.795170,E0012400,0,
E012403R,CONCADIRAME CAMPO SPORTIVO R,"",45.091900,11.721730,E012403r,0,
E012405R,NUOVO CARCERE R,"",45.086230,11.811580,E012405r,0,
E012406R,VIALE PORTA PO - SPIANATA R,"",45.045140,11.784570,E0012406,0,
E012412R,ROVIGO VIA MARCONI R,"",45.076650,11.782720,E012412r,0,
